time,phase,truth_px,truth_py,truth_pz,truth_vx,truth_vy,truth_vz,truth_roll,truth_pitch,truth_yaw,est_px,est_py,est_pz,est_vx,est_vy,est_vz,est_roll,est_pitch,est_yaw,std_px,std_py,std_pz,std_vx,std_vy,std_vz,std_roll,std_pitch,std_yaw,err_px,err_py,err_pz,err_norm
0.000000,0,0.000000,0.000000,0.000000,0.000000,0.000000,0.000000,0.000000,0.000000,0.000000,0.000000,0.000000,0.034937,0.000000,0.000000,0.000000,0.034640,0.029407,0.000009,0.500000,0.500000,0.049725,0.300000,0.300000,0.300000,4.100059,4.100059,5.729578,0.000000,0.000000,0.034937,0.034937
0.020000,0,0.000000,0.000000,0.000000,0.000000,0.000000,0.000000,0.000000,0.000000,0.000000,-0.000001,0.000002,0.047742,-0.000171,0.000261,0.009244,0.054388,0.031091,0.000641,0.500036,0.500036,0.035386,0.300986,0.300986,0.299668,3.372127,3.372127,5.729612,-0.000001,0.000002,0.047742,0.047742
0.040000,0,0.000000,0.000000,0.000000,0.000000,0.000000,0.000000,0.000000,0.000000,0.000000,-0.000006,0.000009,0.052266,-0.000292,0.000511,0.018033,0.068167,0.045249,0.001899,0.500145,0.500145,0.029422,0.302232,0.302232,0.297229,2.938127,2.938127,5.729670,-0.000006,0.000009,0.052266,0.052266
0.065000,0,0.000000,0.000000,0.000000,0.000000,0.000000,0.000000,0.000000,0.000000,0.000000,-0.000016,0.000029,0.055459,-0.000505,0.000908,0.028506,0.081671,0.053556,0.002285,0.500383,0.500383,0.026809,0.304033,0.304033,0.290506,2.642635,2.642635,5.729773,-0.000016,0.000029,0.055459,0.055459
0.080000,0,0.000000,0.000000,0.000000,0.000000,0.000000,0.000000,0.000000,0.000000,0.000000,-0.000024,0.000047,0.062323,-0.000615,0.001138,0.060606,0.087993,0.053897,0.002179,0.500581,0.500581,0.024880,0.305077,0.305077,0.282255,2.425168,2.425168,5.729853,-0.000024,0.000047,0.062323,0.062323
0.100000,0,0.000000,0.000000,0.000000,0.000000,0.000000,0.000000,0.000000,0.000000,0.000000,-0.000051,0.000080,0.064039,-0.001064,0.001605,0.063487,0.096685,0.071817,0.001695,0.500910,0.500910,0.024312,0.306613,0.306613,0.270952,2.256830,2.256830,5.729979,-0.000051,0.000080,0.064039,0.064039
0.120000,0,0.000000,0.000000,0.000000,0.000000,0.000000,0.000000,0.000000,0.000000,0.000000,-0.000085,0.000126,0.062661,-0.001525,0.002058,0.046098,0.106782,0.080755,0.001949,0.501314,0.501314,0.024184,0.308207,0.308207,0.257027,2.121708,2.121708,5.730128,-0.000085,0.000126,0.062661,0.062661
0.140000,0,0.000000,0.000000,0.000000,0.000000,0.000000,0.000000,0.000000,0.000000,0.000000,-0.000140,0.000194,0.061721,-0.002264,0.002761,0.033568,0.122959,0.093908,0.002082,0.501793,0.501793,0.024214,0.309853,0.309853,0.241381,2.010287,2.010287,5.730300,-0.000140,0.000194,0.061721,0.061721
0.160000,0,0.000000,0.000000,0.000000,0.000000,0.000000,0.000000,0.000000,0.000000,0.000000,-0.000196,0.000268,0.057582,-0.002550,0.003110,0.001371,0.131082,0.099226,0.002109,0.502349,0.502349,0.024243,0.311549,0.311549,0.224992,1.916471,1.916471,5.730495,-0.000196,0.000268,0.057582,0.057583
0.180000,0,0.000000,0.000000,0.000000,0.000000,0.000000,0.000000,0.000000,0.000000,0.000000,-0.000282,0.000382,0.057600,-0.003234,0.004160,0.001317,0.149805,0.110940,0.002463,0.502980,0.502980,0.024206,0.313291,0.313291,0.208745,1.836155,1.836155,5.730712,-0.000282,0.000382,0.057600,0.057602
0.200000,0,0.000000,0.000000,0.000000,0.000000,0.000000,0.000000,0.000000,0.000000,0.000000,-0.000365,0.000503,0.056148,-0.003684,0.005132,-0.007910,0.159050,0.115932,0.002706,0.503690,0.503690,0.024076,0.315079,0.315079,0.193233,1.766457,1.766457,5.730953,-0.000365,0.000503,0.056148,0.056151
0.220000,0,0.000000,0.000000,0.000000,0.000000,0.000000,0.000000,0.000000,0.000000,0.000000,-0.000515,0.000660,0.051128,-0.004752,0.006006,-0.036386,0.171958,0.134092,0.002694,0.504476,0.504476,0.023869,0.316908,0.316908,0.178876,1.705288,1.705288,5.731216,-0.000515,0.000660,0.051128,0.051135
0.240000,0,0.000000,0.000000,0.000000,0.000000,0.000000,0.000000,0.000000,0.000000,0.000000,-0.000709,0.000849,0.050592,-0.006022,0.007129,-0.035085,0.185223,0.155097,0.002780,0.505342,0.505342,0.023596,0.318777,0.318777,0.165844,1.651094,1.651094,5.731503,-0.000709,0.000849,0.050592,0.050604
0.260000,0,0.000000,0.000000,0.000000,0.000000,0.000000,0.000000,0.000000,0.000000,0.000000,-0.000878,0.001058,0.050432,-0.006867,0.008311,-0.031948,0.196270,0.161852,0.002982,0.506286,0.506286,0.023275,0.320687,0.320687,0.154179,1.602689,1.602689,5.731812,-0.000878,0.001058,0.050432,0.050451
0.280000,0,0.000000,0.000000,0.000000,0.000000,0.000000,0.000000,0.000000,0.000000,0.000000,-0.001047,0.001331,0.049622,-0.007514,0.009665,-0.032807,0.211898,0.166800,0.002173,0.507310,0.507310,0.022928,0.322637,0.322637,0.143872,1.559151,1.559152,5.732144,-0.001047,0.001331,0.049622,0.049650
0.300000,0,0.000000,0.000000,0.000000,0.000000,0.000000,0.000000,0.000000,0.000000,0.000000,-0.001265,0.001684,0.044995,-0.008531,0.011644,-0.051617,0.233132,0.175727,0.003095,0.508415,0.508415,0.022564,0.324624,0.324624,0.134815,1.519754,1.519755,5.732499,-0.001265,0.001684,0.044995,0.045045
0.320000,0,0.000000,0.000000,0.000000,0.000000,0.000000,0.000000,0.000000,0.000000,0.000000,-0.001526,0.002018,0.044826,-0.009596,0.013157,-0.047595,0.244192,0.186314,0.000781,0.509600,0.509600,0.022198,0.326650,0.326650,0.126925,1.483914,1.483914,5.732877,-0.001526,0.002018,0.044826,0.044897
0.340000,0,0.000000,0.000000,0.000000,0.000000,0.000000,0.000000,0.000000,0.000000,0.000000,-0.001794,0.002456,0.049705,-0.010565,0.014943,-0.021982,0.262583,0.193342,0.000892,0.510866,0.510866,0.021835,0.328711,0.328711,0.120073,1.451156,1.451157,5.733278,-0.001794,0.002456,0.049705,0.049798
0.360000,0,0.000000,0.000000,0.000000,0.000000,0.000000,0.000000,0.000000,0.000000,0.000000,-0.002130,0.002859,0.051072,-0.011930,0.016358,-0.014542,0.271600,0.204989,0.001106,0.512215,0.512215,0.021478,0.330810,0.330810,0.114142,1.421091,1.421091,5.733702,-0.002130,0.002859,0.051072,0.051196
0.380000,0,0.000000,0.000000,0.000000,0.000000,0.000000,0.000000,0.000000,0.000000,0.000000,-0.002480,0.003378,0.053034,-0.013222,0.018188,-0.005307,0.288579,0.214386,0.000483,0.513646,0.513646,0.021137,0.332943,0.332943,0.109040,1.393395,1.393395,5.734148,-0.002480,0.003378,0.053034,0.053199
0.400000,0,0.000000,0.000000,0.000000,0.000000,0.000000,0.000000,0.000000,0.000000,0.000000,-0.002903,0.003955,0.054473,-0.014726,0.020273,0.000840,0.303463,0.225679,0.000553,0.515160,0.515160,0.020808,0.335109,0.335109,0.104653,1.367796,1.367797,5.734618,-0.002903,0.003955,0.054473,0.054693
0.420000,0,0.000000,0.000000,0.000000,0.000000,0.000000,0.000000,0.000000,0.000000,0.000000,-0.003384,0.004544,0.051315,-0.016390,0.022202,-0.011104,0.316935,0.236996,0.000330,0.516758,0.516758,0.020499,0.337309,0.337309,0.100907,1.344066,1.344066,5.735110,-0.003384,0.004544,0.051315,0.051627
0.440000,0,0.000000,0.000000,0.000000,0.000000,0.000000,0.000000,0.000000,0.000000,0.000000,-0.003864,0.005281,0.051615,-0.018022,0.024901,-0.009290,0.335119,0.246995,0.000176,0.518440,0.518440,0.020207,0.339544,0.339544,0.097714,1.322008,1.322009,5.735625,-0.003864,0.005281,0.051615,0.052028
0.460000,0,0.000000,0.000000,0.000000,0.000000,0.000000,0.000000,0.000000,0.000000,0.000000,-0.004451,0.006019,0.049903,-0.019771,0.027051,-0.014946,0.348211,0.259819,0.000156,0.520208,0.520208,0.019931,0.341811,0.341811,0.094998,1.301456,1.301457,5.736163,-0.004451,0.006019,0.049903,0.050461
0.480000,0,0.000000,0.000000,0.000000,0.000000,0.000000,0.000000,0.000000,0.000000,0.000000,-0.005051,0.006772,0.047159,-0.021610,0.028927,-0.023484,0.359978,0.270582,0.000816,0.522060,0.522060,0.019676,0.344107,0.344107,0.092706,1.282265,1.282266,5.736724,-0.005051,0.006772,0.047159,0.047910
0.500000,1,0.000000,0.000000,0.000000,0.000000,0.000000,0.000000,0.000000,0.000000,0.000000,-0.005490,0.007361,0.046628,-0.022536,0.030271,-0.023656,0.359411,0.270379,0.000382,0.524018,0.524018,0.021097,0.346927,0.346927,0.095096,1.283699,1.283700,5.737308,-0.005490,0.007361,0.046628,0.047524
0.520000,1,0.000000,0.000000,0.000237,0.000000,0.000000,0.023685,0.000000,0.000000,0.000000,-0.005947,0.007976,0.046157,-0.023368,0.031441,-0.023480,0.359196,0.269638,0.001327,0.526067,0.526067,0.022590,0.349812,0.349812,0.097434,1.285232,1.285233,5.737914,-0.005947,0.007976,0.045920,0.046985
0.540000,1,0.000000,0.000000,0.000947,0.000000,0.000000,0.047354,0.000000,0.000000,0.000000,-0.006422,0.008611,0.045686,-0.024373,0.032389,-0.023614,0.359464,0.269815,0.002176,0.528208,0.528208,0.024146,0.352764,0.352763,0.099716,1.286865,1.286867,5.738544,-0.006422,0.008611,0.044738,0.046010
0.560000,1,0.000000,0.000000,0.002131,0.000000,0.000000,0.070994,0.000000,0.000000,0.000000,-0.006914,0.009268,0.044963,-0.025191,0.033644,-0.024386,0.359864,0.269896,0.002575,0.530443,0.530443,0.025759,0.355777,0.355777,0.101939,1.288598,1.288599,5.739196,-0.006914,0.009268,0.042832,0.044365
0.580000,1,0.000000,0.000000,0.003787,0.000000,0.000000,0.094589,0.000000,0.000000,0.000000,-0.007424,0.009950,0.044476,-0.026093,0.034939,-0.024378,0.360530,0.271121,0.002799,0.532772,0.532772,0.027431,0.358852,0.358851,0.104123,1.290429,1.290430,5.739871,-0.007424,0.009950,0.040689,0.042541
0.600000,1,0.000000,0.000000,0.005914,0.000000,0.000000,0.118124,0.000000,0.000000,0.000000,-0.007953,0.010659,0.043867,-0.026999,0.036300,-0.024643,0.361175,0.271197,0.002651,0.535197,0.535197,0.029149,0.361986,0.361985,0.106249,1.292359,1.292360,5.740568,-0.007953,0.010659,0.037953,0.040216
0.620000,1,0.000000,0.000000,0.008511,0.000000,0.000000,0.141584,0.000000,0.000000,0.000000,-0.008498,0.011393,0.043375,-0.027777,0.037407,-0.024544,0.360947,0.271803,0.002695,0.537718,0.537718,0.030922,0.365178,0.365178,0.108346,1.294387,1.294388,5.741289,-0.008498,0.011393,0.034863,0.037649
0.640000,1,0.000000,0.000000,0.011577,0.000000,0.000000,0.164955,0.000000,0.000000,0.000000,-0.009061,0.012149,0.042883,-0.028807,0.038386,-0.024646,0.360785,0.271973,0.002215,0.540336,0.540336,0.032741,0.368431,0.368430,0.110403,1.296512,1.296513,5.742032,-0.009061,0.012149,0.031306,0.034782
0.660000,1,0.000000,0.000000,0.015109,0.000000,0.000000,0.188222,0.000000,0.000000,0.000000,-0.009642,0.012924,0.042115,-0.029673,0.039550,-0.025552,0.360043,0.271141,0.002256,0.543053,0.543053,0.034597,0.371740,0.371740,0.112404,1.298735,1.298736,5.742798,-0.009642,0.012924,0.027006,0.031454
0.680000,1,0.000000,0.000000,0.019105,0.000000,0.000000,0.211370,0.000000,0.000000,0.000000,-0.010243,0.013722,0.041603,-0.030702,0.040569,-0.025646,0.360439,0.271298,0.002270,0.545870,0.545870,0.036503,0.375104,0.375104,0.114388,1.301054,1.301055,5.743587,-0.010243,0.013722,0.022499,0.028273
0.700000,1,0.000000,0.000000,0.023563,0.000000,0.000000,0.234385,0.000000,0.000000,0.000000,-0.010866,0.014542,0.041157,-0.031706,0.041700,-0.025324,0.360487,0.270608,0.000511,0.548787,0.548787,0.038438,0.378519,0.378519,0.116312,1.303469,1.303470,5.744399,-0.010866,0.014542,0.017595,0.025281
0.720000,1,0.000000,0.000000,0.028479,0.000000,0.000000,0.257251,0.000000,0.000000,0.000000,-0.011507,0.015386,0.040650,-0.032709,0.043079,-0.025312,0.359684,0.270335,-0.000363,0.551806,0.551806,0.040424,0.381989,0.381988,0.118231,1.305980,1.305981,5.745233,-0.011507,0.015386,0.012171,0.022744
0.740000,1,0.000000,0.000000,0.033852,0.000000,0.000000,0.279955,0.000000,0.000000,0.000000,-0.012169,0.016257,0.040144,-0.033675,0.044311,-0.025288,0.359201,0.270684,-0.000851,0.554928,0.554928,0.042449,0.385509,0.385509,0.120119,1.308585,1.308586,5.746090,-0.012169,0.016257,0.006292,0.021259
0.760000,1,0.000000,0.000000,0.039676,0.000000,0.000000,0.302482,0.000000,0.000000,0.000000,-0.012846,0.017146,0.039014,-0.034581,0.045343,-0.026776,0.358705,0.269725,-0.000619,0.558154,0.558154,0.044492,0.389081,0.389081,0.121941,1.311285,1.311286,5.746970,-0.012846,0.017146,-0.000662,0.021435
0.780000,1,0.000000,0.000000,0.045950,0.000000,0.000000,0.324818,0.000000,0.000000,0.000000,-0.013544,0.018062,0.038479,-0.035463,0.046481,-0.026786,0.359108,0.270059,-0.000188,0.561484,0.561484,0.046588,0.392702,0.392702,0.123773,1.314079,1.314080,5.747872,-0.013544,0.018062,-0.007471,0.023780
0.800000,1,0.000000,0.000000,0.052668,0.000000,0.000000,0.346949,0.000000,0.000000,0.000000,-0.014260,0.018998,0.037760,-0.036470,0.047684,-0.027268,0.359775,0.270465,-0.000198,0.564920,0.564920,0.048695,0.396373,0.396372,0.125530,1.316966,1.316968,5.748798,-0.014260,0.018998,-0.014908,0.028045
0.820000,1,0.000000,0.000000,0.059826,0.000000,0.000000,0.368861,0.000000,0.000000,0.000000,-0.014997,0.019959,0.037216,-0.037526,0.048716,-0.027179,0.359391,0.269934,0.000183,0.568463,0.568463,0.050860,0.400088,0.400088,0.127310,1.319946,1.319947,5.749745,-0.014997,0.019959,-0.022610,0.033682
0.840000,1,0.000000,0.000000,0.067421,0.000000,0.000000,0.390540,0.000000,0.000000,0.000000,-0.015753,0.020943,0.036671,-0.038287,0.049949,-0.027393,0.359047,0.269616,-0.000572,0.572113,0.572113,0.053058,0.403854,0.403854,0.129065,1.323018,1.323019,5.750716,-0.015753,0.020943,-0.030749,0.040402
0.860000,1,0.000000,0.000000,0.075446,0.000000,0.000000,0.411972,0.000000,0.000000,0.000000,-0.016521,0.021944,0.035312,-0.039192,0.051187,-0.029110,0.360179,0.269453,-0.001378,0.575872,0.575872,0.055253,0.407664,0.407663,0.130736,1.326181,1.326182,5.751709,-0.016521,0.021944,-0.040134,0.048633
0.880000,1,0.000000,0.000000,0.083898,0.000000,0.000000,0.433144,0.000000,0.000000,0.000000,-0.017311,0.022978,0.034731,-0.039841,0.052473,-0.028925,0.361054,0.269107,-0.001086,0.579741,0.579741,0.057515,0.411515,0.411514,0.132446,1.329435,1.329436,5.752725,-0.017311,0.022978,-0.049166,0.056965
0.900000,1,0.000000,0.000000,0.092770,0.000000,0.000000,0.454042,0.000000,0.000000,0.000000,-0.018117,0.024040,0.034582,-0.040686,0.053707,-0.028203,0.360527,0.269492,-0.001468,0.583720,0.583719,0.059761,0.415414,0.415413,0.134055,1.332779,1.332780,5.753764,-0.018117,0.024040,-0.058188,0.065513
0.920000,1,0.000000,0.000000,0.102057,0.000000,0.000000,0.474654,0.000000,0.000000,0.000000,-0.019126,0.025371,0.060978,-0.041901,0.055331,0.022554,0.362292,0.271414,-0.001349,0.587810,0.587810,0.038940,0.419353,0.419351,0.100676,1.336204,1.336209,5.754825,-0.019126,0.025371,-0.041080,0.051933
0.940000,1,0.000000,0.000000,0.111754,0.000000,0.000000,0.494965,0.000000,0.000000,0.000000,-0.020122,0.026687,0.081433,-0.043037,0.057060,0.060037,0.364650,0.272521,-0.001770,0.592012,0.592012,0.031438,0.423334,0.423333,0.091213,1.339723,1.339729,5.755909,-0.020122,0.026687,-0.030321,0.045127
0.960000,1,0.000000,0.000000,0.121854,0.000000,0.000000,0.514965,0.000000,0.000000,0.000000,-0.021122,0.028014,0.098365,-0.044274,0.058556,0.089840,0.367471,0.274101,-0.001410,0.596328,0.596327,0.027331,0.427358,0.427356,0.087318,1.343332,1.343338,5.757015,-0.021122,0.028014,-0.023489,0.042221
0.980000,1,0.000000,0.000000,0.132351,0.000000,0.000000,0.534638,0.000000,0.000000,0.000000,-0.022061,0.029256,0.105037,-0.045347,0.059859,0.099261,0.368646,0.274438,-0.001107,0.600757,0.600757,0.024696,0.431422,0.431420,0.085599,1.347028,1.347035,5.758144,-0.022061,0.029256,-0.027313,0.045701
1.000000,1,0.000000,0.000000,0.143237,0.000000,0.000000,0.553975,0.000000,0.000000,0.000000,-0.023147,0.030691,0.122272,-0.046756,0.061855,0.130153,0.371146,0.275670,-0.000510,0.605301,0.605300,0.022853,0.435526,0.435524,0.084912,1.350811,1.350818,5.759296,-0.023147,0.030691,-0.020965,0.043787
1.020000,1,0.000000,0.000000,0.154507,0.000000,0.000000,0.572961,0.000000,0.000000,0.000000,-0.024169,0.032046,0.131118,-0.047838,0.063262,0.143422,0.373675,0.276384,-0.001234,0.609960,0.609960,0.021506,0.439668,0.439666,0.084770,1.354680,1.354688,5.760470,-0.024169,0.032046,-0.023389,0.046456
1.045000,1,0.000000,0.000000,0.169123,0.000000,0.000000,0.596183,0.000000,0.000000,0.000000,-0.025481,0.033777,0.141135,-0.049464,0.065255,0.158105,0.375595,0.277606,-0.000846,0.615948,0.615948,0.020685,0.444898,0.444896,0.085417,1.359636,1.359644,5.761969,-0.025481,0.033777,-0.027987,0.050730
1.065000,1,0.000000,0.000000,0.181229,0.000000,0.000000,0.614339,0.000000,0.000000,0.000000,-0.026496,0.035120,0.145406,-0.050314,0.066687,0.160737,0.375996,0.277460,-0.001069,0.620870,0.620870,0.019881,0.449126,0.449124,0.085588,1.363695,1.363703,5.763194,-0.026496,0.035120,-0.035823,0.056734
1.085000,1,0.000000,0.000000,0.193694,0.000000,0.000000,0.632106,0.000000,0.000000,0.000000,-0.027584,0.036560,0.152128,-0.051445,0.068145,0.169509,0.375760,0.278866,-0.000446,0.625910,0.625909,0.019265,0.453391,0.453388,0.085850,1.367837,1.367846,5.764441,-0.027584,0.036560,-0.041566,0.061849
1.105000,1,0.000000,0.000000,0.206510,0.000000,0.000000,0.649474,0.000000,0.000000,0.000000,-0.028764,0.038124,0.161580,-0.052769,0.069874,0.185533,0.377740,0.279561,-0.002147,0.631068,0.631068,0.018791,0.457690,0.457687,0.086138,1.372062,1.372072,5.765711,-0.028764,0.038124,-0.044930,0.065570
1.125000,1,0.000000,0.000000,0.219670,0.000000,0.000000,0.666432,0.000000,0.000000,0.000000,0.021867,-0.002142,0.175055,0.011045,0.019071,0.212174,0.284192,0.162665,-0.007828,0.520503,0.520501,0.018430,0.053421,0.053422,0.086415,1.090331,1.090311,5.765881,0.021867,-0.002142,-0.044615,0.049732
1.145000,1,0.000000,0.000000,0.233165,0.000000,0.000000,0.682969,0.000000,0.000000,0.000000,0.020373,0.000509,0.187129,0.008326,0.022882,0.234448,0.290190,0.166650,-0.007842,0.520570,0.520567,0.018161,0.058254,0.058229,0.086655,1.095157,1.095143,5.767195,0.020373,0.000509,-0.046035,0.050344
1.165000,1,0.000000,0.000000,0.246986,0.000000,0.000000,0.699075,0.000000,0.000000,0.000000,0.017058,-0.003278,0.203410,0.002412,0.011237,0.268903,0.243656,0.181596,-0.185461,0.520239,0.520235,0.017898,0.044050,0.044001,0.086770,1.089856,1.089847,5.742238,0.017058,-0.003278,-0.043576,0.046911
1.185000,1,0.000000,0.000000,0.261125,0.000000,0.000000,0.714739,0.000000,0.000000,0.000000,0.016154,-0.001490,0.216444,0.001348,0.013481,0.292425,0.246396,0.181851,-0.184718,0.520246,0.520240,0.017768,0.050011,0.049950,0.086916,1.094878,1.094871,5.743592,0.016154,-0.001490,-0.044681,0.047535
1.205000,1,0.000000,0.000000,0.275572,0.000000,0.000000,0.729952,0.000000,0.000000,0.000000,0.015847,0.000315,0.229752,0.006403,0.017014,0.315809,0.255728,0.152846,-0.134110,0.520232,0.520225,0.017668,0.045033,0.044980,0.086981,1.089803,1.089797,5.738305,0.015847,0.000315,-0.045820,0.048484
1.225000,1,0.000000,0.000000,0.290320,0.000000,0.000000,0.744704,0.000000,0.000000,0.000000,0.015278,0.001833,0.243045,0.005801,0.018779,0.338208,0.255226,0.152529,-0.133108,0.520206,0.520198,0.017616,0.051207,0.051154,0.086989,1.094993,1.094987,5.739703,0.015278,0.001833,-0.047275,0.049716
1.245000,1,0.000000,0.000000,0.305357,0.000000,0.000000,0.758985,0.000000,0.000000,0.000000,0.014654,0.003275,0.253388,0.007734,0.016793,0.349958,0.238163,0.139210,-0.136218,0.520142,0.520133,0.017586,0.048308,0.048255,0.086929,1.088113,1.088094,5.739012,0.014654,0.003275,-0.051969,0.054095
1.265000,1,0.000000,0.000000,0.320676,0.000000,0.000000,0.772787,0.000000,0.000000,0.000000,0.015911,0.004670,0.265597,0.002803,0.016904,0.366994,0.233165,0.165160,-0.148070,0.519999,0.519989,0.017574,0.045633,0.045581,0.086808,1.078995,1.078962,5.739438,0.015911,0.004670,-0.055079,0.057521
1.285000,1,0.000000,0.000000,0.336266,0.000000,0.000000,0.786100,0.000000,0.000000,0.000000,0.015282,0.006152,0.282077,0.002465,0.018232,0.397223,0.233165,0.163549,-0.147406,0.519948,0.519937,0.017577,0.051964,0.051917,0.086639,1.084386,1.084351,5.740903,0.015282,0.006152,-0.054189,0.056637
1.305000,1,0.000000,0.000000,0.352117,0.000000,0.000000,0.798918,0.000000,0.000000,0.000000,0.012987,0.015892,0.298417,0.006535,-0.001345,0.425525,0.105251,0.135668,-0.155979,0.519739,0.519728,0.017586,0.049602,0.049556,0.086425,1.074183,1.074140,5.742219,0.012987,0.015892,-0.053700,0.057488
1.325000,1,0.000000,0.000000,0.368219,0.000000,0.000000,0.811230,0.000000,0.000000,0.000000,0.012646,0.016680,0.315530,0.006373,-0.000773,0.454421,0.103973,0.135248,-0.157164,0.519675,0.519663,0.017600,0.055708,0.055666,0.086181,1.079706,1.079660,5.743729,0.012646,0.016680,-0.052689,0.056694
1.345000,1,0.000000,0.000000,0.384562,0.000000,0.000000,0.823030,0.000000,0.000000,0.000000,0.007738,0.015528,0.332392,0.017320,0.003867,0.480470,0.128622,0.066110,-0.103016,0.519447,0.519433,0.017615,0.053895,0.053871,0.085911,1.070515,1.070487,5.743681,0.007738,0.015528,-0.052170,0.054979
1.365000,1,0.000000,0.000000,0.401137,0.000000,0.000000,0.834311,0.000000,0.000000,0.000000,0.007816,0.016117,0.348999,0.017223,0.004452,0.503976,0.128836,0.064634,-0.102055,0.519370,0.519355,0.017630,0.059779,0.059758,0.085624,1.076166,1.076139,5.745235,0.007816,0.016117,-0.052138,0.055129
1.385000,1,0.000000,0.000000,0.417931,0.000000,0.000000,0.845064,0.000000,0.000000,0.000000,0.006063,0.023081,0.368736,0.021396,-0.009825,0.536406,0.040573,0.038435,-0.129730,0.519128,0.519112,0.017643,0.058219,0.058207,0.085331,1.067442,1.067401,5.746007,0.006063,0.023081,-0.049196,0.054678
1.405000,1,0.000000,0.000000,0.434936,0.000000,0.000000,0.855284,0.000000,0.000000,0.000000,0.010101,0.013314,0.386226,0.013283,0.012638,0.558910,0.171183,0.087166,-0.104330,0.518884,0.518866,0.017653,0.056830,0.056831,0.085034,1.059405,1.059371,5.746173,0.010101,0.013314,-0.048710,0.051497
1.425000,1,0.000000,0.000000,0.452139,0.000000,0.000000,0.864963,0.000000,0.000000,0.000000,0.010193,0.013900,0.405257,0.013461,0.012997,0.585057,0.170046,0.085202,-0.102439,0.518800,0.518782,0.017661,0.062567,0.062569,0.084745,1.065222,1.065187,5.747795,0.010193,0.013900,-0.046882,0.049951
1.445000,1,0.000000,0.000000,0.469531,0.000000,0.000000,0.874096,0.000000,0.000000,0.000000,0.015179,0.018423,0.427855,0.002316,0.004284,0.621500,0.116089,0.149718,-0.095060,0.518546,0.518529,0.017666,0.061096,0.061100,0.084466,1.056800,1.056741,5.749368,0.015179,0.018423,-0.041675,0.048027
1.465000,1,0.000000,0.000000,0.487099,0.000000,0.000000,0.882677,0.000000,0.000000,0.000000,0.015182,0.018587,0.444135,0.001911,0.004390,0.634470,0.115415,0.150694,-0.095534,0.518455,0.518438,0.017667,0.066635,0.066640,0.084196,1.062741,1.062678,5.751034,0.015182,0.018587,-0.042964,0.049212
1.485000,1,0.000000,0.000000,0.504834,0.000000,0.000000,0.890701,0.000000,0.000000,0.000000,0.005556,0.015428,0.462948,0.025731,0.012904,0.654902,0.161033,0.014411,-0.095068,0.518214,0.518195,0.017667,0.065364,0.065368,0.083946,1.055125,1.055084,5.752543,0.005556,0.015428,-0.041886,0.044982
1.505000,1,0.000000,0.000000,0.522724,0.000000,0.000000,0.898162,0.000000,0.000000,0.000000,0.006077,0.015714,0.482269,0.026033,0.013236,0.675562,0.161080,0.013276,-0.095616,0.518117,0.518098,0.017662,0.070732,0.070738,0.083710,1.061181,1.061141,5.754254,0.006077,0.015714,-0.040455,0.043823
1.525000,1,0.000000,0.000000,0.540757,0.000000,0.000000,0.905055,0.000000,0.000000,0.000000,0.009611,0.017365,0.498690,0.018128,0.010141,0.685317,0.140378,0.056553,-0.095244,0.517885,0.517867,0.017656,0.069543,0.069554,0.083496,1.054073,1.053990,5.755636,0.009611,0.017365,-0.042067,0.046514
1.545000,1,0.000000,0.000000,0.558922,0.000000,0.000000,0.911377,0.000000,0.000000,0.000000,0.013185,0.021359,0.518801,0.009772,0.000211,0.706526,0.084587,0.101817,-0.096321,0.517658,0.517641,0.017649,0.068331,0.068345,0.083301,1.047088,1.046991,5.757363,0.013185,0.021359,-0.040121,0.047326
1.565000,1,0.000000,0.000000,0.577208,0.000000,0.000000,0.917124,0.000000,0.000000,0.000000,0.013461,0.021217,0.542672,0.009831,0.000433,0.738729,0.085517,0.100786,-0.094923,0.517562,0.517544,0.017639,0.073561,0.073576,0.083124,1.053293,1.053197,5.759140,0.013461,0.021217,-0.034536,0.042709
1.585000,1,0.000000,0.000000,0.595603,0.000000,0.000000,0.922291,0.000000,0.000000,0.000000,0.018536,0.019281,0.564496,-0.004231,0.005855,0.761960,0.113372,0.175156,-0.108199,0.517348,0.517329,0.017629,0.072385,0.072401,0.082968,1.046629,1.046551,5.760853,0.018536,0.019281,-0.031107,0.041024
1.605000,1,0.000000,0.000000,0.614096,0.000000,0.000000,0.926875,0.000000,0.000000,0.000000,0.018514,0.019290,0.584608,-0.004553,0.006027,0.777898,0.113298,0.175579,-0.108692,0.517249,0.517229,0.017617,0.077478,0.077495,0.082828,1.052948,1.052868,5.762675,0.018514,0.019290,-0.029488,0.039805
1.625000,1,0.000000,0.000000,0.632674,0.000000,0.000000,0.930874,0.000000,0.000000,0.000000,0.020825,0.017712,0.602825,-0.012431,0.011376,0.786573,0.138982,0.215480,-0.117315,0.517049,0.517028,0.017605,0.076404,0.076415,0.082708,1.046828,1.046775,5.764113,0.020825,0.017712,-0.029849,0.040477
1.645000,1,0.000000,0.000000,0.651327,0.000000,0.000000,0.934285,0.000000,0.000000,0.000000,0.020559,0.017958,0.617919,-0.013192,0.011675,0.784542,0.138213,0.215964,-0.117099,0.516948,0.516927,0.017594,0.081374,0.081386,0.082604,1.053255,1.053201,5.765979,0.020559,0.017958,-0.033408,0.043143
1.665000,1,0.000000,0.000000,0.670042,0.000000,0.000000,0.937106,0.000000,0.000000,0.000000,0.015268,0.019505,0.634974,0.003416,0.007143,0.789090,0.113549,0.126993,-0.117658,0.516757,0.516735,0.017582,0.080165,0.080171,0.082513,1.046872,1.046843,5.767193,0.015268,0.019505,-0.035068,0.042934
1.685000,1,0.000000,0.000000,0.688807,0.000000,0.000000,0.939336,0.000000,0.000000,0.000000,0.015211,0.024114,0.656182,0.004037,-0.008678,0.806782,0.031199,0.124386,-0.105562,0.516575,0.516553,0.017571,0.078965,0.078970,0.082437,1.040764,1.040739,5.769053,0.015211,0.024114,-0.032625,0.043327
1.705000,1,0.000000,0.000000,0.707611,0.000000,0.000000,0.940971,0.000000,0.000000,0.000000,0.015368,0.023819,0.676042,0.003829,-0.008613,0.818973,0.030637,0.123319,-0.105784,0.516479,0.516456,0.017559,0.083824,0.083830,0.082371,1.047317,1.047293,5.770985,0.015368,0.023819,-0.031569,0.042428
1.725000,1,0.000000,0.000000,0.726442,0.000000,0.000000,0.942013,0.000000,0.000000,0.000000,0.016386,0.023879,0.701973,0.000803,-0.010817,0.849931,0.019346,0.137661,-0.107651,0.516311,0.516287,0.017549,0.082584,0.082591,0.082319,1.041298,1.041296,5.772792,0.016386,0.023879,-0.024468,0.037913
1.745000,1,0.000000,0.000000,0.745288,0.000000,0.000000,0.942459,0.000000,0.000000,0.000000,0.016436,0.023604,0.720695,0.000503,-0.011043,0.855479,0.019093,0.137762,-0.107753,0.516215,0.516191,0.017540,0.087346,0.087352,0.082276,1.047951,1.047948,5.774768,0.016436,0.023604,-0.024592,0.037843
1.765000,1,0.000000,0.000000,0.764136,0.000000,0.000000,0.942310,0.000000,0.000000,0.000000,0.012774,0.020267,0.741848,0.016503,0.001522,0.868386,0.082043,0.057055,-0.100586,0.516063,0.516038,0.017531,0.086234,0.086239,0.082238,1.042602,1.042625,5.776598,0.012774,0.020267,-0.022288,0.032722
1.785000,1,0.000000,0.000000,0.782976,0.000000,0.000000,0.941566,0.000000,0.000000,0.000000,0.013165,0.020203,0.762184,0.016637,0.001610,0.878081,0.081151,0.056969,-0.099789,0.515970,0.515945,0.017523,0.090904,0.090909,0.082211,1.049350,1.049372,5.778619,0.013165,0.020203,-0.020792,0.031840
1.805000,1,0.000000,0.000000,0.801795,0.000000,0.000000,0.940228,0.000000,0.000000,0.000000,0.013269,0.020406,0.778249,0.017803,0.000930,0.873355,0.076528,0.052678,-0.100047,0.515831,0.515806,0.017515,0.089817,0.089824,0.082186,1.044342,1.044354,5.780631,0.013269,0.020406,-0.023546,0.033866
1.825000,1,0.000000,0.000000,0.820581,0.000000,0.000000,0.938295,0.000000,0.000000,0.000000,0.011766,0.019082,0.797794,0.027375,0.007251,0.880095,0.106293,0.005638,-0.097096,0.515698,0.515673,0.017509,0.088658,0.088667,0.082170,1.039242,1.039246,5.782668,0.011766,0.019082,-0.022787,0.031965
1.845000,1,0.000000,0.000000,0.839323,0.000000,0.000000,0.935770,0.000000,0.000000,0.000000,0.012388,0.019098,0.819590,0.027633,0.007176,0.893655,0.106577,0.005736,-0.096985,0.515613,0.515588,0.017503,0.093239,0.093247,0.082157,1.046102,1.046106,5.784754,0.012388,0.019098,-0.019733,0.030126
1.865000,1,0.000000,0.000000,0.858008,0.000000,0.000000,0.932654,0.000000,0.000000,0.000000,0.012925,0.018874,0.840544,0.028232,0.009038,0.903670,0.113578,0.003434,-0.094999,0.515494,0.515469,0.017497,0.092078,0.092091,0.082145,1.041219,1.041200,5.786709,0.012925,0.018874,-0.017464,0.028779
1.885000,1,0.000000,0.000000,0.876625,0.000000,0.000000,0.928948,0.000000,0.000000,0.000000,0.013476,0.019085,0.857628,0.028413,0.009264,0.900365,0.113850,0.002600,-0.095072,0.515413,0.515387,0.017493,0.096584,0.096597,0.082139,1.048162,1.048146,5.788840,0.013476,0.019085,-0.018997,0.030112
1.905000,1,0.000000,0.000000,0.895162,0.000000,0.000000,0.924656,0.000000,0.000000,0.000000,0.015596,0.015465,0.877805,0.018815,0.034730,0.907486,0.234325,0.049352,-0.062925,0.515306,0.515281,0.017489,0.095399,0.095416,0.082133,1.043403,1.043366,5.790854,0.015596,0.015465,-0.017357,0.027993
1.925000,1,0.000000,0.000000,0.913607,0.000000,0.000000,0.919780,0.000000,0.000000,0.000000,0.016036,0.016046,0.900408,0.018997,0.035473,0.922036,0.235556,0.048226,-0.061940,0.515230,0.515205,0.017486,0.099835,0.099852,0.082131,1.050428,1.050394,5.793028,0.016036,0.016046,-0.013200,0.026246
1.945000,1,0.000000,0.000000,0.931949,0.000000,0.000000,0.914323,0.000000,0.000000,0.000000,0.016216,0.018555,0.921391,0.020859,0.020846,0.930209,0.166146,0.038804,-0.068358,0.515137,0.515112,0.017484,0.098700,0.098719,0.082130,1.046033,1.045970,5.794674,0.016216,0.018555,-0.010559,0.026809
1.965000,1,0.000000,0.000000,0.950176,0.000000,0.000000,0.908288,0.000000,0.000000,0.000000,0.017079,0.019519,0.943044,0.017627,0.016062,0.940014,0.141108,0.054806,-0.065207,0.515051,0.515026,0.017480,0.097609,0.097629,0.082127,1.041922,1.041842,5.796754,0.017079,0.019519,-0.007132,0.026899
1.985000,1,0.000000,0.000000,0.968277,0.000000,0.000000,0.901680,0.000000,0.000000,0.000000,0.017453,0.019792,0.963948,0.017526,0.016231,0.947004,0.140676,0.055444,-0.065033,0.514986,0.514960,0.017479,0.101970,0.101990,0.082128,1.049041,1.048959,5.798993,0.017453,0.019792,-0.004329,0.026741
2.005000,1,0.000000,0.000000,0.986240,0.000000,0.000000,0.894502,0.000000,0.000000,0.000000,0.019810,0.020450,0.983880,-0.003493,0.012975,0.950172,0.123700,0.151359,-0.047882,0.514912,0.514886,0.017477,0.100862,0.100882,0.082127,1.045047,1.044957,5.801196,0.019810,0.020450,-0.002360,0.028570
2.025000,1,0.000000,0.000000,1.004053,0.000000,0.000000,0.886759,0.000000,0.000000,0.000000,0.019767,0.020650,1.005835,-0.003733,0.013200,0.959731,0.123130,0.151860,-0.048524,0.514854,0.514828,0.017476,0.105166,0.105188,0.082128,1.052239,1.052147,5.803479,0.019767,0.020650,0.001782,0.028641
2.045000,1,0.000000,0.000000,1.021707,0.000000,0.000000,0.878456,0.000000,0.000000,0.000000,0.020197,0.021229,1.025748,-0.011213,0.008693,0.961999,0.102462,0.183733,-0.039200,0.514792,0.514766,0.017475,0.104071,0.104088,0.082130,1.048437,1.048360,5.805569,0.020197,0.021229,0.004041,0.029579
2.065000,1,0.000000,0.000000,1.039188,0.000000,0.000000,0.869599,0.000000,0.000000,0.000000,0.019966,0.021411,1.044574,-0.011733,0.008756,0.960776,0.101717,0.184352,-0.039086,0.514741,0.514714,0.017474,0.108322,0.108340,0.082129,1.055699,1.055620,5.807894,0.019966,0.021411,0.005386,0.029767
2.085000,1,0.000000,0.000000,1.056487,0.000000,0.000000,0.860192,0.000000,0.000000,0.000000,0.020664,0.021247,1.064428,-0.032442,0.016129,0.962675,0.131882,0.274306,-0.046912,0.514691,0.514664,0.017474,0.107196,0.107209,0.082131,1.051944,1.051883,5.809951,0.020664,0.021247,0.007942,0.030684
2.105000,1,0.000000,0.000000,1.073592,0.000000,0.000000,0.850241,0.000000,0.000000,0.000000,0.020391,0.021644,1.079627,-0.042413,0.016413,0.949229,0.130702,0.316614,-0.041513,0.514646,0.514619,0.017472,0.106013,0.106020,0.082130,1.048074,1.048036,5.811551,0.020391,0.021644,0.006035,0.030343
2.125000,1,0.000000,0.000000,1.090493,0.000000,0.000000,0.839754,0.000000,0.000000,0.000000,0.019555,0.021935,1.101358,-0.043435,0.016575,0.958046,0.130177,0.317847,-0.041876,0.514610,0.514582,0.017472,0.110204,0.110211,0.082131,1.055407,1.055367,5.813941,0.019555,0.021935,0.010865,0.031330
2.145000,1,0.000000,0.000000,1.107179,0.000000,0.000000,0.828736,0.000000,0.000000,0.000000,0.018357,0.022195,1.121528,-0.029847,0.019016,0.961242,0.139577,0.255823,-0.056504,0.514576,0.514548,0.017473,0.109032,0.109033,0.082133,1.051736,1.051718,5.815429,0.018357,0.022195,0.014349,0.032179
2.165000,1,0.000000,0.000000,1.123639,0.000000,0.000000,0.817195,0.000000,0.000000,0.000000,0.017739,0.022607,1.138238,-0.030652,0.019201,0.953100,0.137896,0.257215,-0.056788,0.514549,0.514520,0.017472,0.113177,0.113178,0.082131,1.059128,1.059108,5.817862,0.017739,0.022607,0.014599,0.032232
2.185000,1,0.000000,0.000000,1.139863,0.000000,0.000000,0.805138,0.000000,0.000000,0.000000,0.017098,0.023025,1.154438,-0.034207,0.022934,0.943775,0.152227,0.268374,-0.061794,0.514526,0.514497,0.017472,0.111968,0.111967,0.082132,1.055488,1.055478,5.819886,0.017098,0.023025,0.014575,0.032171
2.205000,1,0.000000,0.000000,1.155841,0.000000,0.000000,0.792572,0.000000,0.000000,0.000000,0.016388,0.023527,1.169299,-0.035060,0.023210,0.930618,0.151925,0.269606,-0.062522,0.514509,0.514480,0.017471,0.116072,0.116072,0.082131,1.062935,1.062924,5.822362,0.016388,0.023527,0.013458,0.031673
2.225000,1,0.000000,0.000000,1.171563,0.000000,0.000000,0.779505,0.000000,0.000000,0.000000,0.015764,0.023996,1.182338,-0.030897,0.021448,0.912335,0.143173,0.247336,-0.062061,0.514497,0.514467,0.017472,0.114770,0.114768,0.082132,1.059109,1.059106,5.824396,0.015764,0.023996,0.010775,0.030667
2.245000,1,0.000000,0.000000,1.187018,0.000000,0.000000,0.765946,0.000000,0.000000,0.000000,0.014804,0.024127,1.198112,-0.046672,0.007245,0.904339,0.080122,0.314687,-0.030857,0.514490,0.514460,0.017472,0.113383,0.113380,0.082132,1.055092,1.055093,5.826616,0.014804,0.024127,0.011094,0.030403
2.265000,1,0.000000,0.000000,1.202197,0.000000,0.000000,0.751904,0.000000,0.000000,0.000000,0.013875,0.024248,1.219521,-0.047587,0.007334,0.915090,0.080033,0.315424,-0.031194,0.514488,0.514458,0.017472,0.117433,0.117430,0.082130,1.062585,1.062586,5.829157,0.013875,0.024248,0.017323,0.032872
2.285000,1,0.000000,0.000000,1.217091,0.000000,0.000000,0.737386,0.000000,0.000000,0.000000,0.014209,0.023391,1.238480,-0.021129,-0.014936,0.917278,-0.016070,0.198870,0.018306,0.514491,0.514461,0.017472,0.116083,0.116083,0.082131,1.058855,1.058867,5.831230,0.014209,0.023391,0.021389,0.034735
2.305000,1,0.000000,0.000000,1.231689,0.000000,0.000000,0.722403,0.000000,0.000000,0.000000,0.013781,0.023095,1.256171,-0.021740,-0.015085,0.915299,-0.018001,0.199446,0.017247,0.514501,0.514470,0.017471,0.120094,0.120094,0.082129,1.066393,1.066403,5.833813,0.013781,0.023095,0.024481,0.036368
2.325000,1,0.000000,0.000000,1.245984,0.000000,0.000000,0.706963,0.000000,0.000000,0.000000,0.013187,0.023282,1.268422,-0.024333,-0.008500,0.895716,0.010805,0.209141,0.011300,0.514513,0.514482,0.017472,0.118744,0.118746,0.082130,1.062805,1.062827,5.836233,0.013187,0.023282,0.022438,0.034920
2.345000,1,0.000000,0.000000,1.259965,0.000000,0.000000,0.691077,0.000000,0.000000,0.000000,0.012687,0.023132,1.281504,-0.024813,-0.008709,0.879908,0.010657,0.208741,0.011859,0.514535,0.514504,0.017472,0.122724,0.122726,0.082130,1.070385,1.070407,5.838858,0.012687,0.023132,0.021539,0.034058
2.365000,1,0.000000,0.000000,1.273624,0.000000,0.000000,0.674754,0.000000,0.000000,0.000000,0.013297,0.021962,1.298090,-0.012883,-0.020698,0.876540,-0.040954,0.155637,0.028721,0.514555,0.514524,0.017472,0.121258,0.121263,0.082128,1.066515,1.066544,5.841391,0.013297,0.021962,0.024465,0.035464
2.385000,1,0.000000,0.000000,1.286952,0.000000,0.000000,0.658005,0.000000,0.000000,0.000000,0.013359,0.021587,1.312532,-0.009611,-0.020907,0.866361,-0.040920,0.140043,0.033353,0.514579,0.514549,0.017472,0.119774,0.119780,0.082129,1.062661,1.062702,5.843915,0.013359,0.021587,0.025580,0.036038
2.405000,1,0.000000,0.000000,1.299942,0.000000,0.000000,0.640841,0.000000,0.000000,0.000000,0.013162,0.021176,1.327165,-0.009753,-0.021172,0.857572,-0.042599,0.139743,0.034166,0.514618,0.514588,0.017472,0.123706,0.123712,0.082126,1.070268,1.070307,5.846605,0.013162,0.021176,0.027224,0.036916
2.425000,1,0.000000,0.000000,1.312583,0.000000,0.000000,0.623272,0.000000,0.000000,0.000000,0.013385,0.019891,1.341038,-0.006150,-0.029544,0.846840,-0.078080,0.121740,0.038856,0.514650,0.514620,0.017472,0.122204,0.122210,0.082127,1.066477,1.066528,5.849205,0.013385,0.019891,0.028455,0.037209
2.445000,1,0.000000,0.000000,1.324870,0.000000,0.000000,0.605309,0.000000,0.000000,0.000000,0.013255,0.019308,1.353172,-0.006384,-0.030065,0.831017,-0.079617,0.120875,0.038687,0.514702,0.514672,0.017473,0.126108,0.126114,0.082128,1.074116,1.074165,5.851937,0.013255,0.019308,0.028302,0.036736
2.465000,1,0.000000,0.000000,1.336793,0.000000,0.000000,0.586964,0.000000,0.000000,0.000000,0.011411,0.017501,1.365582,-0.020057,-0.040188,0.817468,-0.122201,0.176348,0.021555,0.514741,0.514712,0.017472,0.124531,0.124536,0.082126,1.070188,1.070250,5.854516,0.011411,0.017501,0.028789,0.035571
2.485000,1,0.000000,0.000000,1.348346,0.000000,0.000000,0.568248,0.000000,0.000000,0.000000,0.011006,0.016693,1.381417,-0.020516,-0.040822,0.816001,-0.123982,0.176614,0.021495,0.514806,0.514777,0.017472,0.128403,0.128408,0.082126,1.077855,1.077915,5.857290,0.011006,0.016693,0.033072,0.038646
2.505000,1,0.000000,0.000000,1.359521,0.000000,0.000000,0.549173,0.000000,0.000000,0.000000,0.007514,0.014814,1.394985,-0.041770,-0.048812,0.807096,-0.156607,0.265251,-0.005625,0.514851,0.514823,0.017472,0.126795,0.126799,0.082124,1.073933,1.074011,5.859803,0.007514,0.014814,0.035465,0.039162
2.525000,1,0.000000,0.000000,1.370310,0.000000,0.000000,0.529751,0.000000,0.000000,0.000000,0.009902,0.011613,1.407957,-0.020853,-0.064944,0.796785,-0.223397,0.175425,0.048923,0.514900,0.514873,0.017472,0.125162,0.125167,0.082125,1.069990,1.070092,5.862118,0.009902,0.011613,0.037647,0.040623
2.545000,1,0.000000,0.000000,1.380708,0.000000,0.000000,0.509995,0.000000,0.000000,0.000000,0.009476,0.010320,1.416295,-0.021425,-0.065934,0.772003,-0.225711,0.174727,0.048731,0.514981,0.514955,0.017472,0.128994,0.128998,0.082126,1.077665,1.077763,5.864955,0.009476,0.010320,0.035586,0.038245
2.565000,1,0.000000,0.000000,1.390708,0.000000,0.000000,0.489916,0.000000,0.000000,0.000000,0.010529,0.009257,1.427304,-0.012993,-0.065471,0.757496,-0.221749,0.137387,0.066231,0.515035,0.515010,0.017472,0.127308,0.127306,0.082124,1.073630,1.073761,5.867270,0.010529,0.009257,0.036596,0.039189
2.585000,1,0.000000,0.000000,1.400303,0.000000,0.000000,0.469528,0.000000,0.000000,0.000000,0.010267,0.007944,1.440139,-0.013185,-0.066509,0.750058,-0.223229,0.137920,0.066516,0.515130,0.515105,0.017472,0.131113,0.131112,0.082125,1.081325,1.081453,5.870149,0.010267,0.007944,0.039836,0.041897
2.605000,1,0.000000,0.000000,1.409487,0.000000,0.000000,0.448844,0.000000,0.000000,0.000000,0.009597,0.007947,1.449664,-0.015775,-0.060122,0.732195,-0.195146,0.146709,0.062400,0.515188,0.515166,0.017471,0.129381,0.129371,0.082123,1.077238,1.077398,5.872628,0.009597,0.007947,0.040177,0.042064
2.625000,1,0.000000,0.000000,1.418255,0.000000,0.000000,0.427876,0.000000,0.000000,0.000000,0.009278,0.006753,1.456026,-0.015989,-0.061064,0.705299,-0.197199,0.145812,0.062393,0.515297,0.515275,0.017472,0.133163,0.133153,0.082124,1.084950,1.085105,5.875549,0.009278,0.006753,0.037771,0.039476
2.645000,1,0.000000,0.000000,1.426600,0.000000,0.000000,0.406638,0.000000,0.000000,0.000000,0.012448,0.008054,1.462517,0.001097,-0.049534,0.680447,-0.146195,0.072766,0.086942,0.515360,0.515339,0.017472,0.131317,0.131300,0.082125,1.080570,1.080754,5.878234,0.012448,0.008054,0.035917,0.038856
2.665000,1,0.000000,0.000000,1.434519,0.000000,0.000000,0.385143,0.000000,0.000000,0.000000,0.012612,0.008456,1.473350,0.001679,-0.043379,0.671440,-0.118428,0.069571,0.090740,0.515424,0.515405,0.017472,0.129410,0.129385,0.082123,1.076063,1.076265,5.881061,0.012612,0.008456,0.038832,0.041695
2.685000,1,0.000000,0.000000,1.442005,0.000000,0.000000,0.363404,0.000000,0.000000,0.000000,0.012646,0.007583,1.486691,0.001800,-0.044063,0.671267,-0.120308,0.068954,0.091067,0.515548,0.515530,0.017472,0.133152,0.133126,0.082124,1.083760,1.083960,5.884044,0.012646,0.007583,0.044686,0.047056
2.705000,1,0.000000,0.000000,1.449053,0.000000,0.000000,0.341436,0.000000,0.000000,0.000000,0.010476,0.011142,1.494874,-0.008440,-0.024304,0.654215,-0.035787,0.110907,0.096087,0.515616,0.515599,0.017471,0.131273,0.131241,0.082122,1.079471,1.079685,5.886972,0.010476,0.011142,0.045820,0.048305
2.725000,1,0.000000,0.000000,1.455661,0.000000,0.000000,0.319253,0.000000,0.000000,0.000000,0.010302,0.010676,1.497648,-0.008567,-0.024580,0.620756,-0.035930,0.109604,0.096092,0.515755,0.515738,0.017472,0.134993,0.134961,0.082124,1.087178,1.087391,5.889996,0.010302,0.010676,0.041987,0.044531
2.745000,1,0.000000,0.000000,1.461822,0.000000,0.000000,0.296868,0.000000,0.000000,0.000000,0.010074,0.012058,1.504368,-0.009060,-0.016955,0.602215,-0.002715,0.109064,0.096404,0.515825,0.515809,0.017472,0.132985,0.132952,0.082125,1.082551,1.082762,5.893030,0.010074,0.012058,0.042546,0.045355
2.765000,1,0.000000,0.000000,1.467534,0.000000,0.000000,0.274295,0.000000,0.000000,0.000000,0.009886,0.011735,1.507528,-0.009215,-0.017171,0.573331,-0.003096,0.106531,0.095460,0.515977,0.515962,0.017472,0.136685,0.136651,0.082123,1.090262,1.090472,5.896096,0.009886,0.011735,0.039994,0.042837
2.785000,1,0.000000,0.000000,1.472793,0.000000,0.000000,0.251549,0.000000,0.000000,0.000000,0.007632,0.007711,1.512475,-0.017797,-0.032246,0.552190,-0.064339,0.139822,0.096453,0.516047,0.516033,0.017472,0.134564,0.134531,0.082124,1.085352,1.085554,5.899146,0.007632,0.007711,0.039682,0.041139
2.805000,1,0.000000,0.000000,1.477595,0.000000,0.000000,0.228644,0.000000,0.000000,0.000000,0.007098,0.009094,1.513106,-0.018902,-0.024624,0.518280,-0.031273,0.141644,0.094394,0.516118,0.516104,0.017471,0.132336,0.132302,0.082122,1.080127,1.080331,5.902248,0.007098,0.009094,0.035511,0.037338
2.825000,1,0.000000,0.000000,1.481938,0.000000,0.000000,0.205595,0.000000,0.000000,0.000000,0.006717,0.008607,1.519617,-0.019071,-0.025043,0.505747,-0.031848,0.141017,0.094244,0.516282,0.516270,0.017472,0.135996,0.135962,0.082124,1.087805,1.088008,5.905376,0.006717,0.008607,0.037680,0.039229
2.845000,1,0.000000,0.000000,1.485818,0.000000,0.000000,0.182416,0.000000,0.000000,0.000000,0.011581,0.003859,1.520294,0.000577,-0.041581,0.474954,-0.099738,0.057806,0.091650,0.516354,0.516342,0.017472,0.133770,0.133736,0.082124,1.082715,1.082913,5.908510,0.011581,0.003859,0.034476,0.036573
2.865000,1,0.000000,0.000000,1.489233,0.000000,0.000000,0.159122,0.000000,0.000000,0.000000,0.011589,0.003028,1.527211,0.000387,-0.042062,0.466598,-0.100503,0.056651,0.092007,0.516531,0.516520,0.017472,0.137411,0.137376,0.082123,1.090390,1.090587,5.911679,0.011589,0.003028,0.037977,0.039822
2.885000,1,0.000000,0.000000,1.492182,0.000000,0.000000,0.135727,0.000000,0.000000,0.000000,0.017727,0.008186,1.529760,0.022180,-0.021265,0.444664,-0.012501,-0.035609,0.108174,0.516601,0.516590,0.017472,0.135103,0.135063,0.082124,1.085125,1.085330,5.914826,0.017727,0.008186,0.037577,0.042348
2.905000,1,0.000000,0.000000,1.494662,0.000000,0.000000,0.112246,0.000000,0.000000,0.000000,0.018171,0.007763,1.535944,0.022470,-0.021712,0.435668,-0.012704,-0.037431,0.107593,0.516791,0.516782,0.017471,0.138726,0.138686,0.082122,1.092793,1.092999,5.918035,0.018171,0.007763,0.041282,0.045767
2.925000,1,0.000000,0.000000,1.496671,0.000000,0.000000,0.088695,0.000000,0.000000,0.000000,0.017047,0.000283,1.541748,0.017490,-0.045972,0.426019,-0.112632,-0.016765,0.081682,0.516859,0.516850,0.017472,0.136364,0.136322,0.082123,1.087455,1.087652,5.921058,0.017047,0.000283,0.045076,0.048193
2.945000,1,0.000000,0.000000,1.498209,0.000000,0.000000,0.065088,0.000000,0.000000,0.000000,0.018767,0.002508,1.546967,0.022427,-0.036011,0.415234,-0.068694,-0.037591,0.093530,0.516928,0.516919,0.017472,0.134005,0.133957,0.082124,1.082199,1.082405,5.924177,0.018767,0.002508,0.048758,0.052305
2.965000,1,0.000000,0.000000,1.499275,0.000000,0.000000,0.041439,0.000000,0.000000,0.000000,0.019213,0.001795,1.550847,0.022858,-0.036346,0.400909,-0.069204,-0.039516,0.093058,0.517128,0.517120,0.017472,0.137590,0.137541,0.082123,1.089819,1.090025,5.927447,0.019213,0.001795,0.051573,0.055064
2.985000,1,0.000000,0.000000,1.499867,0.000000,0.000000,0.017764,0.000000,0.000000,0.000000,0.011072,0.003794,1.550722,-0.005144,-0.028058,0.374379,-0.033581,0.075399,0.102111,0.517195,0.517188,0.017472,0.135227,0.135174,0.082124,1.084663,1.084868,5.930605,0.011072,0.003794,0.050855,0.052184
3.005000,2,0.000000,0.000000,1.500000,0.000000,0.000000,0.000000,0.000000,0.000000,0.000000,0.010987,0.003122,1.549537,-0.005159,-0.028702,0.346260,-0.038444,0.073367,0.100631,0.517376,0.517369,0.017471,0.138240,0.138189,0.082122,1.066717,1.066914,5.933890,0.010987,0.003122,0.049537,0.050837
3.025000,2,0.000000,0.000000,1.500000,0.000000,0.000000,0.000000,0.000000,0.000000,0.000000,0.010959,-0.000827,1.548218,-0.004988,-0.039488,0.319399,-0.083448,0.069827,0.100279,0.517412,0.517405,0.017472,0.135319,0.135267,0.082123,1.038309,1.038495,5.937188,0.010959,-0.000827,0.048218,0.049455
3.045000,2,0.000000,0.000000,1.500000,0.000000,0.000000,0.000000,0.000000,0.000000,0.000000,0.010854,-0.001853,1.549554,-0.005062,-0.040786,0.302954,-0.093777,0.069388,0.100447,0.517602,0.517596,0.017472,0.138340,0.138289,0.082124,1.023470,1.023648,5.940519,0.010854,-0.001853,0.049554,0.050763
3.065000,2,0.000000,0.000000,1.500000,0.000000,0.000000,0.000000,0.000000,0.000000,0.000000,0.003024,-0.005709,1.546748,-0.028623,-0.050411,0.274181,-0.134771,0.157731,0.096691,0.517638,0.517633,0.017472,0.135476,0.135422,0.082123,0.998722,0.998898,5.943869,0.003024,-0.005709,0.046748,0.047193
3.085000,2,0.000000,0.000000,1.500000,0.000000,0.000000,0.000000,0.000000,0.000000,0.000000,0.002908,-0.002756,1.542479,-0.027331,-0.038699,0.242561,-0.093658,0.156067,0.090029,0.517676,0.517672,0.017472,0.132582,0.132524,0.082124,0.975532,0.975713,5.947143,0.002908,-0.002756,0.042479,0.042667
3.105000,2,0.000000,0.000000,1.500000,0.000000,0.000000,0.000000,0.000000,0.000000,0.000000,0.002176,-0.003629,1.537733,-0.028242,-0.039498,0.211345,-0.098702,0.162210,0.090967,0.517872,0.517869,0.017471,0.135618,0.135560,0.082122,0.964318,0.964492,5.950538,0.002176,-0.003629,0.037733,0.037969
3.125000,2,0.000000,0.000000,1.500000,0.000000,0.000000,0.000000,0.000000,0.000000,0.000000,0.000586,-0.004025,1.536122,-0.031500,-0.038871,0.192377,-0.100472,0.177000,0.090378,0.517909,0.517908,0.017472,0.132776,0.132718,0.082123,0.943825,0.943997,5.953893,0.000586,-0.004025,0.036122,0.036350
3.145000,2,0.000000,0.000000,1.500000,0.000000,0.000000,0.000000,0.000000,0.000000,0.000000,-0.000142,-0.004992,1.539492,-0.032100,-0.039934,0.190796,-0.109714,0.180546,0.091257,0.518114,0.518112,0.017472,0.135800,0.135743,0.082124,0.934311,0.934475,5.957331,-0.000142,-0.004992,0.039492,0.039807
3.165000,2,0.000000,0.000000,1.500000,0.000000,0.000000,0.000000,0.000000,0.000000,0.000000,0.004097,-0.008474,1.538771,-0.018409,-0.048238,0.176055,-0.141967,0.137559,0.096885,0.518151,0.518151,0.017471,0.133023,0.132965,0.082123,0.916084,0.916244,5.960716,0.004097,-0.008474,0.038771,0.039897
3.185000,2,0.000000,0.000000,1.500000,0.000000,0.000000,0.000000,0.000000,0.000000,0.000000,0.003663,-0.009620,1.540327,-0.018823,-0.049348,0.169691,-0.151284,0.139324,0.096818,0.518363,0.518364,0.017472,0.136032,0.135975,0.082124,0.907954,0.908106,5.964197,0.003663,-0.009620,0.040327,0.041619
3.205000,2,0.000000,0.000000,1.500000,0.000000,0.000000,0.000000,0.000000,0.000000,0.000000,0.002438,-0.011674,1.536889,-0.021323,-0.052808,0.147381,-0.166870,0.148885,0.096592,0.518399,0.518401,0.017471,0.133309,0.133247,0.082122,0.891598,0.891750,5.967678,0.002438,-0.011674,0.036889,0.038769
3.225000,2,0.000000,0.000000,1.500000,0.000000,0.000000,0.000000,0.000000,0.000000,0.000000,-0.001294,-0.014790,1.536686,-0.030977,-0.059456,0.137194,-0.193575,0.179744,0.094167,0.518439,0.518442,0.017472,0.130585,0.130519,0.082123,0.876126,0.876280,5.971167,-0.001294,-0.014790,0.036686,0.039577
3.245000,2,0.000000,0.000000,1.500000,0.000000,0.000000,0.000000,0.000000,0.000000,0.000000,-0.002067,-0.016091,1.533515,-0.031820,-0.060264,0.118036,-0.200087,0.186114,0.094799,0.518653,0.518657,0.017472,0.133586,0.133519,0.082124,0.869745,0.869892,5.974710,-0.002067,-0.016091,0.033515,0.037235
3.265000,2,0.000000,0.000000,1.500000,0.000000,0.000000,0.000000,0.000000,0.000000,0.000000,-0.002726,-0.018626,1.533119,-0.032210,-0.064751,0.109129,-0.218338,0.189805,0.096579,0.518691,0.518696,0.017471,0.130901,0.130828,0.082123,0.855710,0.855862,5.978177,-0.002726,-0.018626,0.033119,0.038095
3.285000,2,0.000000,0.000000,1.500000,0.000000,0.000000,0.000000,0.000000,0.000000,0.000000,-0.003383,-0.020104,1.533435,-0.032548,-0.066086,0.103084,-0.226998,0.190811,0.095925,0.518912,0.518918,0.017472,0.133883,0.133812,0.082124,0.850197,0.850344,5.981759,-0.003383,-0.020104,0.033435,0.039160
3.305000,2,0.000000,0.000000,1.500000,0.000000,0.000000,0.000000,0.000000,0.000000,0.000000,-0.000084,-0.019044,1.531028,-0.022199,-0.060596,0.088395,-0.214172,0.160615,0.099207,0.518948,0.518956,0.017471,0.131238,0.131160,0.082122,0.837403,0.837555,5.985252,-0.000084,-0.019044,0.031028,0.036406
3.325000,2,0.000000,0.000000,1.500000,0.000000,0.000000,0.000000,0.000000,0.000000,0.000000,-0.000552,-0.020425,1.529650,-0.022613,-0.061879,0.078309,-0.222861,0.161769,0.099185,0.519175,0.519184,0.017472,0.134204,0.134125,0.082123,0.832629,0.832775,5.988875,-0.000552,-0.020425,0.029650,0.036009
3.345000,2,0.000000,0.000000,1.500000,0.000000,0.000000,0.000000,0.000000,0.000000,0.000000,-0.006826,-0.012402,1.527790,-0.038156,-0.038100,0.067074,-0.155257,0.207731,0.086607,0.519209,0.519219,0.017472,0.131563,0.131477,0.082124,0.820846,0.820996,5.992483,-0.006826,-0.012402,0.027790,0.031188
3.365000,2,0.000000,0.000000,1.500000,0.000000,0.000000,0.000000,0.000000,0.000000,0.000000,-0.010551,-0.014145,1.527996,-0.046462,-0.041264,0.063490,-0.168552,0.233289,0.091536,0.519247,0.519258,0.017471,0.128934,0.128851,0.082123,0.809644,0.809785,5.996064,-0.010551,-0.014145,0.027996,0.033094
3.385000,2,0.000000,0.000000,1.500000,0.000000,0.000000,0.000000,0.000000,0.000000,0.000000,-0.011557,-0.015134,1.526457,-0.047166,-0.042213,0.054325,-0.176130,0.236857,0.091086,0.519475,0.519486,0.017472,0.131889,0.131806,0.082124,0.805854,0.805991,5.999747,-0.011557,-0.015134,0.026457,0.032597
3.405000,2,0.000000,0.000000,1.500000,0.000000,0.000000,0.000000,0.000000,0.000000,0.000000,-0.004399,-0.013347,1.523871,-0.026470,-0.035989,0.042422,-0.163391,0.181024,0.079779,0.519511,0.519525,0.017471,0.129297,0.129217,0.082122,0.795534,0.795662,6.003330,-0.004399,-0.013347,0.023871,0.027701
3.425000,2,0.000000,0.000000,1.500000,0.000000,0.000000,0.000000,0.000000,0.000000,0.000000,-0.005018,-0.014244,1.522920,-0.027060,-0.037286,0.036638,-0.171350,0.185146,0.078565,0.519744,0.519759,0.017472,0.132234,0.132155,0.082123,0.792248,0.792373,6.007053,-0.005018,-0.014244,0.022920,0.027449
3.445000,2,0.000000,0.000000,1.500000,0.000000,0.000000,0.000000,0.000000,0.000000,0.000000,-0.009990,-0.014407,1.522667,-0.038781,-0.036430,0.033598,-0.172986,0.217897,0.083085,0.519778,0.519793,0.017472,0.129647,0.129570,0.082124,0.782652,0.782771,6.010770,-0.009990,-0.014407,0.022667,0.028656
3.465000,2,0.000000,0.000000,1.500000,0.000000,0.000000,0.000000,0.000000,0.000000,0.000000,-0.010846,-0.015246,1.521460,-0.039501,-0.037241,0.027516,-0.179013,0.220526,0.084277,0.520017,0.520033,0.017471,0.132570,0.132494,0.082123,0.779810,0.779924,6.014533,-0.010846,-0.015246,0.021460,0.028471
3.485000,2,0.000000,0.000000,1.500000,0.000000,0.000000,0.000000,0.000000,0.000000,0.000000,-0.016852,-0.015321,1.518568,-0.052943,-0.036149,0.016384,-0.180727,0.259159,0.088553,0.520048,0.520066,0.017472,0.130011,0.129937,0.082124,0.770892,0.770997,6.018254,-0.016852,-0.015321,0.018568,0.029385
3.505000,2,0.000000,0.000000,1.500000,0.000000,0.000000,0.000000,0.000000,0.000000,0.000000,-0.012889,-0.013345,1.515633,-0.040831,-0.029850,0.005732,-0.164845,0.228458,0.076026,0.520084,0.520102,0.017471,0.127437,0.127369,0.082122,0.762294,0.762392,6.021907,-0.012889,-0.013345,0.015633,0.024261
3.525000,2,0.000000,0.000000,1.500000,0.000000,0.000000,0.000000,0.000000,0.000000,0.000000,-0.013793,-0.014045,1.512940,-0.041562,-0.030731,-0.003443,-0.168249,0.231484,0.077301,0.520320,0.520340,0.017472,0.130351,0.130284,0.082123,0.760061,0.760159,6.025728,-0.013793,-0.014045,0.012940,0.023558
3.545000,2,0.000000,0.000000,1.500000,0.000000,0.000000,0.000000,0.000000,0.000000,0.000000,-0.009982,-0.007815,1.509654,-0.030368,-0.014137,-0.013836,-0.127379,0.203072,0.062051,0.520354,0.520374,0.017472,0.127795,0.127734,0.082124,0.752024,0.752113,6.029490,-0.009982,-0.007815,0.009654,0.015934
3.565000,2,0.000000,0.000000,1.500000,0.000000,0.000000,0.000000,0.000000,0.000000,0.000000,-0.010693,-0.008149,1.512587,-0.030890,-0.014802,-0.003361,-0.130203,0.207389,0.062045,0.520595,0.520617,0.017471,0.130696,0.130635,0.082123,0.750111,0.750198,6.033351,-0.010693,-0.008149,0.012587,0.018417
3.585000,2,0.000000,0.000000,1.500000,0.000000,0.000000,0.000000,0.000000,0.000000,0.000000,-0.009790,-0.001572,1.510142,-0.027593,0.001837,-0.011191,-0.090536,0.200501,0.056774,0.520626,0.520648,0.017472,0.128175,0.128122,0.082124,0.742611,0.742687,6.037062,-0.009790,-0.001572,0.010142,0.014184
3.605000,2,0.000000,0.000000,1.500000,0.000000,0.000000,0.000000,0.000000,0.000000,0.000000,-0.010405,-0.001608,1.510145,-0.028074,0.001282,-0.010475,-0.094377,0.201668,0.057238,0.520873,0.520896,0.017471,0.131063,0.131010,0.082122,0.740984,0.741058,6.040963,-0.010405,-0.001608,0.010145,0.014621
3.625000,2,0.000000,0.000000,1.500000,0.000000,0.000000,0.000000,0.000000,0.000000,0.000000,-0.003149,0.004645,1.508938,-0.009641,0.016097,-0.013681,-0.057534,0.157538,0.025927,0.520902,0.520925,0.017472,0.128555,0.128514,0.082123,0.733931,0.733992,6.044538,-0.003149,0.004645,0.008938,0.010554
3.645000,2,0.000000,0.000000,1.500000,0.000000,0.000000,0.000000,0.000000,0.000000,0.000000,-0.001520,0.004803,1.510561,-0.005360,0.015622,-0.007660,-0.058915,0.147600,0.015624,0.520937,0.520960,0.017472,0.126079,0.126049,0.082124,0.727172,0.727220,6.047874,-0.001520,0.004803,0.010561,0.011701
3.665000,2,0.000000,0.000000,1.500000,0.000000,0.000000,0.000000,0.000000,0.000000,0.000000,-0.001669,0.005122,1.505769,-0.005576,0.015543,-0.022760,-0.059268,0.149544,0.015871,0.521180,0.521204,0.017471,0.128962,0.128931,0.082123,0.725945,0.725993,6.051833,-0.001669,0.005122,0.005769,0.007893
3.685000,2,0.000000,0.000000,1.500000,0.000000,0.000000,0.000000,0.000000,0.000000,0.000000,0.004290,0.008797,1.505473,0.009002,0.023678,-0.022268,-0.041849,0.114726,-0.006152,0.521212,0.521235,0.017472,0.126481,0.126458,0.082124,0.719523,0.719559,6.055257,0.004290,0.008797,0.005473,0.011214
3.705000,2,0.000000,0.000000,1.500000,0.000000,0.000000,0.000000,0.000000,0.000000,0.000000,0.004487,0.009248,1.505179,0.008972,0.023434,-0.021846,-0.043532,0.114367,-0.005346,0.521459,0.521483,0.017471,0.129352,0.129330,0.082122,0.718511,0.718546,6.059254,0.004487,0.009248,0.005179,0.011510
3.725000,2,0.000000,0.000000,1.500000,0.000000,0.000000,0.000000,0.000000,0.000000,0.000000,-0.005030,0.005362,1.504118,-0.014371,0.012991,-0.023865,-0.069228,0.170686,0.031695,0.521490,0.521512,0.017472,0.126902,0.126885,0.082123,0.712456,0.712482,6.062523,-0.005030,0.005362,0.004118,0.008426
3.745000,2,0.000000,0.000000,1.500000,0.000000,0.000000,0.000000,0.000000,0.000000,0.000000,-0.005297,0.005605,1.500789,-0.014369,0.012670,-0.033010,-0.069805,0.168945,0.031066,0.521741,0.521764,0.017472,0.129761,0.129745,0.082124,0.711637,0.711662,6.066558,-0.005297,0.005605,0.000789,0.007752
3.765000,2,0.000000,0.000000,1.500000,0.000000,0.000000,0.000000,0.000000,0.000000,0.000000,0.005436,0.002304,1.497275,0.011226,0.004302,-0.042071,-0.089175,0.109602,-0.015800,0.521768,0.521791,0.017471,0.127314,0.127304,0.082123,0.705866,0.705886,6.070283,0.005436,0.002304,-0.002725,0.006502
3.785000,2,0.000000,0.000000,1.500000,0.000000,0.000000,0.000000,0.000000,0.000000,0.000000,-0.002531,0.001898,1.500521,-0.008684,0.002705,-0.028753,-0.095372,0.157766,0.005861,0.521801,0.521823,0.017472,0.124895,0.124885,0.082124,0.700307,0.700322,6.073990,-0.002531,0.001898,0.000521,0.003206
3.805000,2,0.000000,0.000000,1.500000,0.000000,0.000000,0.000000,0.000000,0.000000,0.000000,-0.002726,0.001933,1.501935,-0.008919,0.002534,-0.022365,-0.097850,0.157889,0.006105,0.522048,0.522071,0.017471,0.127754,0.127744,0.082122,0.699766,0.699779,6.078081,-0.002726,0.001933,0.001935,0.003862
3.825000,2,0.000000,0.000000,1.500000,0.000000,0.000000,0.000000,0.000000,0.000000,0.000000,-0.010337,-0.002329,1.499714,-0.026695,-0.008065,-0.028239,-0.125105,0.199028,0.020350,0.522080,0.522102,0.017472,0.125375,0.125368,0.082123,0.694509,0.694518,6.082030,-0.010337,-0.002329,-0.000286,0.010600
3.845000,2,0.000000,0.000000,1.500000,0.000000,0.000000,0.000000,0.000000,0.000000,0.000000,-0.010955,-0.002523,1.497466,-0.027317,-0.008513,-0.033642,-0.126524,0.202243,0.019736,0.522330,0.522353,0.017472,0.128223,0.128216,0.082124,0.694115,0.694124,6.086159,-0.010955,-0.002523,-0.002534,0.011523
3.865000,2,0.000000,0.000000,1.500000,0.000000,0.000000,0.000000,0.000000,0.000000,0.000000,-0.010471,-0.005371,1.499607,-0.025300,-0.015070,-0.024406,-0.142434,0.198887,0.020280,0.522359,0.522382,0.017471,0.125839,0.125835,0.082123,0.689065,0.689072,6.090259,-0.010471,-0.005371,-0.000393,0.011774
3.885000,2,0.000000,0.000000,1.500000,0.000000,0.000000,0.000000,0.000000,0.000000,0.000000,-0.011067,-0.005689,1.499977,-0.026103,-0.015355,-0.021527,-0.144041,0.202031,0.020368,0.522613,0.522637,0.017472,0.128678,0.128673,0.082124,0.688806,0.688814,6.094426,-0.011067,-0.005689,-0.000023,0.012443
3.905000,2,0.000000,0.000000,1.500000,0.000000,0.000000,0.000000,0.000000,0.000000,0.000000,-0.006455,-0.012157,1.495810,-0.014619,-0.029950,-0.033768,-0.179818,0.177316,0.018578,0.522640,0.522665,0.017471,0.126345,0.126342,0.082122,0.684031,0.684037,6.098595,-0.006455,-0.012157,-0.004190,0.014388
3.925000,2,0.000000,0.000000,1.500000,0.000000,0.000000,0.000000,0.000000,0.000000,0.000000,-0.005604,-0.005348,1.498905,-0.012175,-0.012918,-0.021404,-0.144860,0.171314,0.025153,0.522674,0.522699,0.017472,0.124023,0.124017,0.082123,0.679386,0.679391,6.102783,-0.005604,-0.005348,-0.001095,0.007823
3.945000,2,0.000000,0.000000,1.500000,0.000000,0.000000,0.000000,0.000000,0.000000,0.000000,-0.005863,-0.005640,1.501879,-0.012432,-0.013468,-0.010240,-0.147345,0.171605,0.025312,0.522923,0.522949,0.017472,0.126861,0.126856,0.082124,0.679324,0.679329,6.107005,-0.005863,-0.005640,0.001879,0.008350
3.965000,2,0.000000,0.000000,1.500000,0.000000,0.000000,0.000000,0.000000,0.000000,0.000000,0.000091,0.005547,1.502066,0.001641,0.012806,-0.008918,-0.091554,0.141440,0.028887,0.522956,0.522982,0.017471,0.124578,0.124573,0.082123,0.674911,0.674915,6.111209,0.000091,0.005547,0.002066,0.005920
3.985000,2,0.000000,0.000000,1.500000,0.000000,0.000000,0.000000,0.000000,0.000000,0.000000,0.000117,0.005818,1.503718,0.001579,0.012784,-0.002837,-0.092222,0.142434,0.029602,0.523209,0.523236,0.017472,0.127409,0.127403,0.082124,0.674954,0.674958,6.115468,0.000117,0.005818,0.003718,0.006906
4.005000,2,0.000000,0.000000,1.500000,0.000000,0.000000,0.000000,0.000000,0.000000,0.000000,-0.001548,0.010359,1.508109,-0.002393,0.022294,0.011589,-0.073365,0.151016,0.044448,0.523241,0.523267,0.017471,0.125154,0.125151,0.082122,0.670739,0.670740,6.119424,-0.001548,0.010359,0.008109,0.013246
4.025000,2,0.000000,0.000000,1.500000,0.000000,0.000000,0.000000,0.000000,0.000000,0.000000,-0.001601,0.010790,1.504192,-0.002383,0.022067,-0.001910,-0.074303,0.150048,0.044733,0.523497,0.523524,0.017472,0.127976,0.127973,0.082123,0.670878,0.670880,6.123720,-0.001601,0.010790,0.004192,0.011686
4.045000,2,0.000000,0.000000,1.500000,0.000000,0.000000,0.000000,0.000000,0.000000,0.000000,-0.008609,0.007054,1.500856,-0.018205,0.012392,-0.012810,-0.097132,0.182694,0.065192,0.523528,0.523554,0.017472,0.125739,0.125740,0.082124,0.666822,0.666822,6.127660,-0.008609,0.007054,0.000856,0.011163
